[
  {
    "id": 1,
    "provider": "NA",
    "facility": "Mild may",
    "district": "Mityana Town",
    "focalPerson": "Winnie",
    "latitude": 0.4019401,
    "longitude": 32.0279168
  },
  {
    "id": 2,
    "provider": "Alex Mugenyi",
    "facility": "Reach out Mbuya Mubende",
    "district": "Mubende Municipality",
    "focalPerson": "Alex Mugenyi",
    "latitude": 0.7241182,
    "longitude": 31.5908969
  },
  {
    "id": 3,
    "provider": "Kagolo Annet",
    "facility": "Fort portal referral hospital",
    "district": "Fort portal Municipality",
    "focalPerson": "Kagoro Annet",
    "latitude": 0.6549644,
    "longitude": 30.2779549
  },
  {
    "id": 4,
    "provider": "NA",
    "facility": "Kasese Municipal health centre",
    "district": "Kasese  Municipality",
    "focalPerson": "Kabugho Juliet",
    "latitude": 0.2045394,
    "longitude": 30.0078249
  },
  {
    "id": 5,
    "provider": "NA",
    "facility": "Rukoki health centre 3",
    "district": "Kasese - Rukoki",
    "focalPerson": "Babilebe James",
    "latitude": 0.2062074,
    "longitude": 30.1056606
  },
  {
    "id": 6,
    "provider": "NA",
    "facility": "Katungulu health centre",
    "district": "Kasese- Katungulu",
    "focalPerson": "Apio",
    "latitude": 0.2058749,
    "longitude": 30.1052691
  },
  {
    "id": 7,
    "provider": "Biira Maureen",
    "facility": "Bwera general hospital",
    "district": "Kasese  Bwera",
    "focalPerson": "Aliganyira.M.Robina",
    "latitude": 0.0336939,
    "longitude": 29.7650313
  },
  {
    "id": 8,
    "provider": "Beatrice Mbabazi",
    "facility": "Kagote health centre 3",
    "district": "Kabarole – Fortportal Town",
    "focalPerson": "Mbabazi Beatrice",
    "latitude": 0.6521979,
    "longitude": 30.2699723
  },
  {
    "id": 9,
    "provider": "NA",
    "facility": "Mbarara Municipal",
    "district": "Mbarara",
    "focalPerson": "Mutebi Akram",
    "latitude": -0.6170537,
    "longitude": 30.6554738
  },
  {
    "id": 10,
    "provider": "NA",
    "facility": "Rakai Hospital",
    "district": "Rakai  Town",
    "focalPerson": "Kalachi Emmy",
    "latitude": -0.7133058,
    "longitude": 31.4008054
  },
  {
    "id": 11,
    "provider": "NA",
    "facility": "Kalisizo hospital",
    "district": "Rakai",
    "focalPerson": "Katende Martin",
    "latitude": -0.5356186,
    "longitude": 31.6204896
  },
  {
    "id": 13,
    "provider": "NA",
    "facility": "TASO Masaka",
    "district": "Masaka Town",
    "focalPerson": "Namulondo Flavia",
    "latitude": 0.0580377,
    "longitude": 32.4762404
  },
  {
    "id": 14,
    "provider": "NA",
    "facility": "Lyantonde Muslim Health Centre 3",
    "district": "Lyantonde",
    "focalPerson": "Grace Amuge",
    "latitude": -0.4041536,
    "longitude": 31.1535883
  },
  {
    "id": 15,
    "provider": "NA",
    "facility": "(MARPI MULAGO) Mbarara regional referral hospital",
    "district": "Mbarara Town",
    "focalPerson": "Ndamuka Robert",
    "latitude": -0.616895,
    "longitude": 30.65816
  },
  {
    "id": 16,
    "provider": "Dr. Okello Julius Peter",
    "facility": "TASO Mbarara",
    "district": "Mbarara Town",
    "focalPerson": "Muhumuza Julius",
    "latitude": -0.6181835,
    "longitude": 30.6577992
  },
  {
    "id": 17,
    "provider": "Dr. Harrison Masereka",
    "facility": "Kireka SDA health centre",
    "district": "Wakiso - Kireka",
    "focalPerson": "Dr. Harrison Masereka",
    "latitude": 0.3359255,
    "longitude": 32.6414439
  },
  {
    "id": 18,
    "provider": "Nekesa Gertrude",
    "facility": "Busia Health Centre 4",
    "district": "Busia Town",
    "focalPerson": "Nekesa Gertrude",
    "latitude": 0.4711454,
    "longitude": 34.0866204
  },
  {
    "id": 19,
    "provider": "Murangira Aggrey",
    "facility": "Jinja Regional Referal hospital",
    "district": "Jinja- Town",
    "focalPerson": "Murangira Aggrey",
    "latitude": 0.4301197,
    "longitude": 33.2031448
  },
  {
    "id": 20,
    "provider": "Mwanje Zulpher Baar",
    "facility": "Malaba health centre3",
    "district": "Malaba Border",
    "focalPerson": "Mwanje Zulpher Baar",
    "latitude": 0.6424117,
    "longitude": 34.2584587
  },
  {
    "id": 21,
    "provider": "Okwany Joseph",
    "facility": "TASO Soroti",
    "district": "Soroti Town",
    "focalPerson": "Okwany Joseph",
    "latitude": 1.7168504,
    "longitude": 33.6107048
  },
  {
    "id": 22,
    "provider": "Kisaame Andrew",
    "facility": "TASO Mbale",
    "district": "Mbale Town",
    "focalPerson": "Amoit Sandra",
    "latitude": 1.0766773,
    "longitude": 34.1739741
  },
  {
    "id": 23,
    "provider": "Opiyo John Stephen",
    "facility": "TASO Gulu",
    "district": "Gulu Town",
    "focalPerson": "Opiyo John Stephen",
    "latitude": 2.776844,
    "longitude": 32.2960174
  },
  {
    "id": 24,
    "provider": "Conselor Ernest",
    "facility": "Kisenyi Health Center",
    "district": "Kampala",
    "focalPerson": "Ernest",
    "latitude": 0.3075896,
    "longitude": 32.5670775
  },
  {
    "id": 25,
    "provider": "NA",
    "facility": "Kisugu Health Center",
    "district": "Kampala",
    "focalPerson": "Lucy Wabwire",
    "latitude": 0.3066713,
    "longitude": 32.6085497
  },
  {
    "id": 26,
    "provider": "NA",
    "facility": "Marpi Mulago",
    "district": "Kampala- Mulago",
    "focalPerson": "Dr Amza",
    "latitude": 0.3386825,
    "longitude": 32.5738287
  },
  {
    "id": 27,
    "provider": "NA",
    "facility": "Kawaala Health Center",
    "district": "Kawaala - Lubaga",
    "focalPerson": "Counsellor Esther",
    "latitude": 0.3419662,
    "longitude": 32.5517519
  },
  {
    "id": 28,
    "provider": "NA",
    "facility": "Kasangati Health Center",
    "district": "Kasangati Wakiso",
    "focalPerson": "Counsellor Monica",
    "latitude": 0.4349885,
    "longitude": 32.5987422
  },
  {
    "id": 29,
    "provider": "NA",
    "facility": "TASO Entebbe",
    "district": "Entebbe Municipality",
    "focalPerson": "Counsellor Edith",
    "latitude": 0.0580377,
    "longitude": 32.4762404
  },
  {
    "id": 30,
    "provider": "NA",
    "facility": "TASO Mulago",
    "district": "Kampala- Mulago",
    "focalPerson": "Counselor Godfrey",
    "latitude": 0.3429994,
    "longitude": 32.5751623
  },
  {
    "id": 31,
    "provider": "NA",
    "facility": "Alive Medical Center",
    "district": "Namuwongo - Kampala",
    "focalPerson": "Dr Sarah",
    "latitude": 0.3097261,
    "longitude": 32.6079591
  },
  {
    "id": 32,
    "provider": "NA",
    "facility": "Mild May",
    "district": "Kajansi – Entebbe Road",
    "focalPerson": "Dr Richard",
    "latitude": 0.2273963,
    "longitude": 32.5475198
  },
  {
    "id": 33,
    "provider": "NA",
    "facility": "Komamboga Health Center",
    "district": "Komamboga",
    "focalPerson": "NA",
    "latitude": 0.3907466,
    "longitude": 32.5822574
  },
  {
    "id": 34,
    "provider": "NA",
    "facility": "Naguru Teenage Center",
    "district": "Naguru  Nakawa",
    "focalPerson": "NA",
    "latitude": 0.3210737,
    "longitude": 32.6150801
  },
  {
    "id": 35,
    "provider": "NA",
    "facility": "Kiswa Health Center",
    "district": "Kiswa -Bugolobi",
    "focalPerson": "NA",
    "latitude": 0.3211124,
    "longitude": 32.6150501
  }
]